{
"type": "FeatureCollection",
"name": "north_county_libraries",
"crs": { "type": "name", "properties": { "name": "urn:ogc:def:crs:OGC:1.3:CRS84" } },
"features": [
{ "type": "Feature", "properties": { "WEBSITE": "http://www.sandiego.gov/public-library/", "ADDRESS": "12095 World Trade Dr.", "DISTRICT": "San Diego Public (City)", "NAME": "Carmel Mountain Ranch", "TYPE": "Public", "PHONE": "(858) 538-8181", "ZIP": "92128", "CITY": "San Diego, CA", "DATA_SRC": "City of San Diego", "UPDATE_DAT": "2023-07-25" }, "geometry": { "type": "Point", "coordinates": [ -117.073832012234888, 32.981706450720438 ] } },
{ "type": "Feature", "properties": { "WEBSITE": "http://www.sandiego.gov/public-library/", "ADDRESS": "3919 Townsgate Drive", "DISTRICT": "San Diego Public (City)", "NAME": "Carmel Valley", "TYPE": "Public", "PHONE": "(858) 552-1668", "ZIP": "92130", "CITY": "San Diego, CA", "DATA_SRC": "City of San Diego", "UPDATE_DAT": "2023-07-25" }, "geometry": { "type": "Point", "coordinates": [ -117.230561992600727, 32.952260078501375 ] } },
{ "type": "Feature", "properties": { "WEBSITE": "http://www.sandiego.gov/public-library/", "ADDRESS": "8405 New Salem St", "DISTRICT": "San Diego Public (City)", "NAME": "Mira Mesa", "TYPE": "Public", "PHONE": "(858) 538-8165", "ZIP": "92126", "CITY": "San Diego, CA", "DATA_SRC": "City of San Diego", "UPDATE_DAT": "2023-07-25" }, "geometry": { "type": "Point", "coordinates": [ -117.142713148237334, 32.915316590847745 ] } },
{ "type": "Feature", "properties": { "WEBSITE": "http://www.sandiego.gov/public-library/", "ADDRESS": "17110 Bernardo Center Drive", "DISTRICT": "San Diego Public (City)", "NAME": "Rancho Bernardo", "TYPE": "Public", "PHONE": "(858) 538-8163", "ZIP": "92128", "CITY": "San Diego, CA", "DATA_SRC": "City of San Diego", "UPDATE_DAT": "2023-07-25" }, "geometry": { "type": "Point", "coordinates": [ -117.074919851136059, 33.024937397670008 ] } },
{ "type": "Feature", "properties": { "WEBSITE": "http://www.sandiego.gov/public-library/", "ADDRESS": "13330 Salmon River Road", "DISTRICT": "San Diego Public (City)", "NAME": "Rancho Penasquitos", "TYPE": "Public", "PHONE": "(858) 538-8159", "ZIP": "92129", "CITY": "San Diego, CA", "DATA_SRC": "City of San Diego", "UPDATE_DAT": "2023-07-25" }, "geometry": { "type": "Point", "coordinates": [ -117.12193021995239, 32.957988986228173 ] } },
{ "type": "Feature", "properties": { "WEBSITE": "http://www.sandiego.gov/public-library/", "ADDRESS": "10301 Scripps Lake Drive", "DISTRICT": "San Diego Public (City)", "NAME": "Scripps Ranch", "TYPE": "Public", "PHONE": "(858) 538-8158", "ZIP": "92131", "CITY": "San Diego, CA", "DATA_SRC": "City of San Diego", "UPDATE_DAT": "2023-07-25" }, "geometry": { "type": "Point", "coordinates": [ -117.105160941529789, 32.911281922234188 ] } },
{ "type": "Feature", "properties": { "WEBSITE": "https://www.sdcl.org/", "ADDRESS": "10433 Reserve Drive", "DISTRICT": "San Diego County", "NAME": "4S Ranch Branch", "TYPE": "Public", "PHONE": "(858) 673-4697", "ZIP": "92127", "CITY": "San Diego, CA", "DATA_SRC": "SDCL", "UPDATE_DAT": "2023-07-25" }, "geometry": { "type": "Point", "coordinates": [ -117.114313880193777, 33.021143770178234 ] } },
{ "type": "Feature", "properties": { "WEBSITE": "https://www.sdcl.org/", "ADDRESS": "2081 Newcastle Ave.", "DISTRICT": "San Diego County", "NAME": "Cardiff-by-the-Sea Branch", "TYPE": "Public", "PHONE": "(760) 753-4027", "ZIP": "92007", "CITY": "Cardiff-by-the-Sea,", "DATA_SRC": "SDCL", "UPDATE_DAT": "2023-07-25" }, "geometry": { "type": "Point", "coordinates": [ -117.281402234626526, 33.021934121150075 ] } },
{ "type": "Feature", "properties": { "WEBSITE": "https://www.sdcl.org/", "ADDRESS": "1309 Camino Del Mar, Del Mar", "DISTRICT": "San Diego County", "NAME": "Del Mar Branch", "TYPE": "Public", "PHONE": "(858) 755-1666", "ZIP": "92014", "CITY": "Del Mar, CA", "DATA_SRC": "SDCL", "UPDATE_DAT": "2023-07-25" }, "geometry": { "type": "Point", "coordinates": [ -117.264344074130477, 32.95776677871504 ] } },
{ "type": "Feature", "properties": { "WEBSITE": "https://www.sdcl.org/", "ADDRESS": "13137 Poway Rd", "DISTRICT": "San Diego County", "NAME": "Poway Branch", "TYPE": "Public", "PHONE": "(858) 513-2900", "ZIP": "92064", "CITY": "Poway, CA", "DATA_SRC": "SDCL", "UPDATE_DAT": "2023-07-25" }, "geometry": { "type": "Point", "coordinates": [ -117.045713022810475, 32.955993114197874 ] } },
{ "type": "Feature", "properties": { "WEBSITE": "https://www.sdcl.org/", "ADDRESS": "17040 Avenida de Acacias", "DISTRICT": "San Diego County", "NAME": "Rancho Santa Fe Branch", "TYPE": "Public", "PHONE": "(858) 756-2512", "ZIP": "92067", "CITY": "Rancho Santa Fe, CA", "DATA_SRC": "SDCL", "UPDATE_DAT": "2023-07-25" }, "geometry": { "type": "Point", "coordinates": [ -117.205524317137531, 33.020976680983104 ] } },
{ "type": "Feature", "properties": { "WEBSITE": "https://www.sdcl.org/", "ADDRESS": "157 Stevens Ave.", "DISTRICT": "San Diego County", "NAME": "Solana Beach Branch Earl Warren Middle School", "TYPE": "Public", "PHONE": "(858) 755-1404", "ZIP": "92075", "CITY": "Solana Beach, CA", "DATA_SRC": "SDCL", "UPDATE_DAT": "2023-07-25" }, "geometry": { "type": "Point", "coordinates": [ -117.262686532446324, 32.994287710376561 ] } }
]
}
