{
"type": "FeatureCollection",
"name": "target_sites",
"crs": { "type": "name", "properties": { "name": "urn:ogc:def:crs:EPSG::3857" } },
"features": [
{ "type": "Feature", "properties": { "district": "San Diego Unified", "schoolID": 49, "priv": "N", "shrtName": "Scripps Ranch", "gsOffered": "9-12", "socType": "High Schools (Public)", "charter": "N", "openDate": "1993-09-01", "zip": "92131", "city": "San Diego", "addr": "10410 Falcon Way", "name": "Scripps Ranch High", "cdsCode": "37683383730884", "docType": "Unified School District", "minGrade": 9.0, "maxGrade": 12.0 }, "geometry": { "type": "Point", "coordinates": [ -13036971.34442606382072, 3883173.047948634717613 ] } },
{ "type": "Feature", "properties": { "district": "San Diego Unified", "schoolID": 97, "priv": "N", "shrtName": "Pacific Beach Mid", "gsOffered": "6-8", "socType": "Intermediate/Middle Schools (Public)", "charter": "N", "openDate": "1980-07-01", "zip": "92109", "city": "San Diego", "addr": "4676 Ingraham Street", "name": "Pacific Beach Middle", "cdsCode": "37683386059695", "docType": "Unified School District", "minGrade": 6.0, "maxGrade": 8.0 }, "geometry": { "type": "Point", "coordinates": [ -13051297.591326136142015, 3869069.736755965743214 ] } },
{ "type": "Feature", "properties": { "district": "Coronado Unified", "schoolID": 172, "priv": "N", "shrtName": "Coronado Mid", "gsOffered": "6-8", "socType": "Intermediate/Middle Schools (Public)", "charter": "N", "openDate": "1980-07-01", "zip": "92118", "city": "Coronado", "addr": "550 F Avenue", "name": "Coronado Middle", "cdsCode": "37680316059570", "docType": "Unified School District", "minGrade": 6.0, "maxGrade": 8.0 }, "geometry": { "type": "Point", "coordinates": [ -13044366.314189225435257, 3854782.191028171684593 ] } },
{ "type": "Feature", "properties": { "district": "San Diego Unified", "schoolID": 200, "priv": "N", "shrtName": "HTH", "gsOffered": "9-12", "socType": "High Schools (Public)", "charter": "Y", "openDate": "2000-09-01", "zip": "92106", "city": "San Diego", "addr": "2861 Womble Road", "name": "High Tech High", "cdsCode": "37683383731247", "docType": "Unified School District", "minGrade": 9.0, "maxGrade": 12.0 }, "geometry": { "type": "Point", "coordinates": [ -13048598.908722205087543, 3860158.179297873750329 ] } },
{ "type": "Feature", "properties": { "district": "Poway Unified", "schoolID": 252, "priv": "N", "shrtName": "Oak Valley Mid", "gsOffered": "6-8", "socType": "Intermediate/Middle Schools (Public)", "charter": "N", "openDate": "2005-08-25", "zip": "92127", "city": "San Diego", "addr": "16055 Winecreek Road", "name": "Oak Valley Middle", "cdsCode": "37682960108332", "docType": "Unified School District", "minGrade": 6.0, "maxGrade": 8.0 }, "geometry": { "type": "Point", "coordinates": [ -13036596.364760102704167, 3895314.124298520386219 ] } },
{ "type": "Feature", "properties": { "district": "San Dieguito Union High", "schoolID": 254, "priv": "N", "shrtName": "Canyon Crest", "gsOffered": "9-12", "socType": "High Schools (Public)", "charter": "N", "openDate": "2004-08-30", "zip": "92130", "city": "San Diego", "addr": "5951 Village Center Loop Road", "name": "Canyon Crest Academy", "cdsCode": "37683460106328", "docType": "High School District", "minGrade": 9.0, "maxGrade": 12.0 }, "geometry": { "type": "Point", "coordinates": [ -13045406.149069458246231, 3889884.60490792337805 ] } },
{ "type": "Feature", "properties": { "district": "San Dieguito Union High", "schoolID": 423, "priv": "N", "shrtName": "Oak Crest", "gsOffered": "7-8", "socType": "Intermediate/Middle Schools (Public)", "charter": "N", "openDate": "1980-07-01", "zip": "92024", "city": "Encinitas", "addr": "675 Balour Drive", "name": "Oak Crest Middle", "cdsCode": "37683466059737", "docType": "High School District", "minGrade": 7.0, "maxGrade": 8.0 }, "geometry": { "type": "Point", "coordinates": [ -13053950.722427442669868, 3901016.900211516302079 ] } },
{ "type": "Feature", "properties": { "district": "Poway Unified", "schoolID": 457, "priv": "N", "shrtName": "Mt Carmel", "gsOffered": "9-12", "socType": "High Schools (Public)", "charter": "N", "openDate": "1980-07-01", "zip": "92129", "city": "San Diego", "addr": "9550 Carmel Mountain Road", "name": "Mt. Carmel High", "cdsCode": "37682963730074", "docType": "Unified School District", "minGrade": 9.0, "maxGrade": 12.0 }, "geometry": { "type": "Point", "coordinates": [ -13037850.666286520659924, 3891023.840635360684246 ] } },
{ "type": "Feature", "properties": { "district": "San Dieguito Union High", "schoolID": 473, "priv": "N", "shrtName": "Carmel Valley", "gsOffered": "7-8", "socType": "Intermediate/Middle Schools (Public)", "charter": "N", "openDate": "1999-09-01", "zip": "92130", "city": "San Diego", "addr": "3800 Mykonos Lane", "name": "Carmel Valley Middle", "cdsCode": "37683466117352", "docType": "High School District", "minGrade": 7.0, "maxGrade": 8.0 }, "geometry": { "type": "Point", "coordinates": [ -13050058.446956440806389, 3888299.139760033693165 ] } },
{ "type": "Feature", "properties": { "district": "San Diego Unified", "schoolID": 489, "priv": "N", "shrtName": "Hoover", "gsOffered": "9-12", "socType": "High Schools (Public)", "charter": "N", "openDate": "1980-07-01", "zip": "92115", "city": "San Diego", "addr": "4474 El Cajon Boulevard", "name": "Hoover High", "cdsCode": "37683383732997", "docType": "Unified School District", "minGrade": 9.0, "maxGrade": 12.0 }, "geometry": { "type": "Point", "coordinates": [ -13035290.715317225083709, 3862966.813941545784473 ] } },
{ "type": "Feature", "properties": { "district": "San Diego Unified", "schoolID": 493, "priv": "N", "shrtName": "Wilson", "gsOffered": "6-8", "socType": "Intermediate/Middle Schools (Public)", "charter": "N", "openDate": "1980-07-01", "zip": "92105", "city": "San Diego", "addr": "3838 Orange Avenue", "name": "Wilson Middle", "cdsCode": "37683386061980", "docType": "Unified School District", "minGrade": 6.0, "maxGrade": 8.0 }, "geometry": { "type": "Point", "coordinates": [ -13036788.052623234689236, 3862638.219135332852602 ] } },
{ "type": "Feature", "properties": { "district": "San Diego Unified", "schoolID": 524, "priv": "N", "shrtName": "Mt Everest", "gsOffered": "K-12", "socType": "Alternative Schools of Choice", "charter": "N", "openDate": "1980-07-01", "zip": "92117", "city": "San Diego", "addr": "4350 Mount Everest Boulevard", "name": "Mt. Everest Academy", "cdsCode": "37683383730751", "docType": "Unified School District", "minGrade": 0.0, "maxGrade": 12.0 }, "geometry": { "type": "Point", "coordinates": [ -13045160.246529856696725, 3871511.013004180975258 ] } },
{ "type": "Feature", "properties": { "district": "San Diego Unified", "schoolID": 577, "priv": "N", "shrtName": "Mission Bay", "gsOffered": "9-12", "socType": "High Schools (Public)", "charter": "N", "openDate": "1980-07-01", "zip": "92109", "city": "San Diego", "addr": "2475 Grand Avenue", "name": "Mission Bay High", "cdsCode": "37683383734431", "docType": "Unified School District", "minGrade": 9.0, "maxGrade": 12.0 }, "geometry": { "type": "Point", "coordinates": [ -13049253.03563279658556, 3868948.939210945274681 ] } },
{ "type": "Feature", "properties": { "district": "San Diego Unified", "schoolID": 591, "priv": "N", "shrtName": "Lincoln High", "gsOffered": "9-12", "socType": "High Schools (Public)", "charter": "N", "openDate": "2007-09-03", "zip": "92113", "city": "San Diego", "addr": "4777 Imperial Avenue", "name": "Lincoln High", "cdsCode": "37683380114025", "docType": "Unified School District", "minGrade": 9.0, "maxGrade": 12.0 }, "geometry": { "type": "Point", "coordinates": [ -13034347.111213997006416, 3856002.270398308988661 ] } },
{ "type": "Feature", "properties": { "district": "San Diego Unified", "schoolID": 695, "priv": "N", "shrtName": "E3", "gsOffered": "9-12", "socType": "High Schools (Public)", "charter": "Y", "openDate": "2013-09-03", "zip": "92101", "city": "San Diego", "addr": "395 11th Ave, 6th Floor", "name": "e3 Civic High", "cdsCode": "37683380127647", "docType": "Unified School District", "minGrade": 9.0, "maxGrade": 12.0 }, "geometry": { "type": "Point", "coordinates": [ -13041546.2029669880867, 3856706.080655604600906 ] } },
{ "type": "Feature", "properties": { "district": "San Dieguito Union High", "schoolID": 100010, "priv": "Y", "shrtName": "Pacific Academy", "gsOffered": "K-12", "socType": "Private", "charter": "N", "openDate": "2011-08-11", "zip": "92024", "city": "Encinitas", "addr": "679 Encinitas Boulevard, Suite 211", "name": "Pacific Academy", "cdsCode": "37683466141725", "docType": "High School District", "minGrade": 0.0, "maxGrade": 12.0 }, "geometry": { "type": "Point", "coordinates": [ -13055283.607996379956603, 3901682.511220656801015 ] } },
{ "type": "Feature", "properties": { "district": "San Dieguito Union High", "schoolID": 100016, "priv": "Y", "shrtName": "Santa Fe Christian", "gsOffered": "K-12", "socType": "Private", "charter": "N", "openDate": "1980-07-01", "zip": "92075", "city": "Solana Beach", "addr": "838 Academy Drive", "name": "Santa Fe Christian Schools", "cdsCode": "37683466927883", "docType": "High School District", "minGrade": 0.0, "maxGrade": 12.0 }, "geometry": { "type": "Point", "coordinates": [ -13053074.463865017518401, 3894241.5208480800502 ] } },
{ "type": "Feature", "properties": { "district": "Solana Beach Elementary", "schoolID": 100017, "priv": "Y", "shrtName": "St. James", "gsOffered": "K-8", "socType": "Private", "charter": "N", "openDate": "1980-07-01", "zip": "92075", "city": "Solana Beach", "addr": "623 South Nardo Avenue", "name": "St. James Academy", "cdsCode": "37683876975734", "docType": "Elementary School District", "minGrade": 0.0, "maxGrade": 8.0 }, "geometry": { "type": "Point", "coordinates": [ -13053756.361980741843581, 3893311.991741168312728 ] } },
{ "type": "Feature", "properties": { "district": "San Diego Unified", "schoolID": 100025, "priv": "Y", "shrtName": "Torah High", "gsOffered": "9-12", "socType": "Private", "charter": "N", "openDate": "1980-07-01", "zip": "92122", "city": "San Diego", "addr": "9001 Towne Centre Drive", "name": "Torah High Schools of San Diego", "cdsCode": "37683387100720", "docType": "Unified School District", "minGrade": 9.0, "maxGrade": 12.0 }, "geometry": { "type": "Point", "coordinates": [ -13047348.407981421798468, 3878180.585985399316996 ] } },
{ "type": "Feature", "properties": { "district": "San Diego Unified", "schoolID": 100041, "priv": "Y", "shrtName": "Madeleine", "gsOffered": "K-8", "socType": "Private", "charter": "N", "openDate": "1980-07-01", "zip": "92110", "city": "San Diego", "addr": "1875 Illion Street", "name": "School of the Madeleine", "cdsCode": "37683386975924", "docType": "Unified School District", "minGrade": 0.0, "maxGrade": 8.0 }, "geometry": { "type": "Point", "coordinates": [ -13046557.995948264375329, 3866004.947588046081364 ] } },
{ "type": "Feature", "properties": { "district": "San Diego Unified", "schoolID": 100043, "priv": "Y", "shrtName": "Futures Academy SD", "gsOffered": "6-12", "socType": "Private", "charter": "N", "openDate": "1980-07-01", "zip": "92131", "city": "San Diego", "addr": "9915 Mira Mesa Blvd, Suite 210", "name": "Futures Academy-San Diego", "cdsCode": "37683387077753", "docType": "Unified School District", "minGrade": 6.0, "maxGrade": 12.0 }, "geometry": { "type": "Point", "coordinates": [ -13037024.55899135582149, 3884072.906158702913672 ] } },
{ "type": "Feature", "properties": { "district": "Coronado Unified", "schoolID": 100064, "priv": "Y", "shrtName": "Sacred Heart", "gsOffered": "K-8", "socType": "Private", "charter": "N", "openDate": "1980-07-01", "zip": "92118", "city": "Coronado", "addr": "706 C Avenue", "name": "Sacred Heart Parish School", "cdsCode": "37680316975650", "docType": "Unified School District", "minGrade": 0.0, "maxGrade": 8.0 }, "geometry": { "type": "Point", "coordinates": [ -13044059.514992348849773, 3854139.888454964850098 ] } },
{ "type": "Feature", "properties": { "district": "Del Mar Union Elementary", "schoolID": 100104, "priv": "Y", "shrtName": "SD Jewish Academy", "gsOffered": "K-12", "socType": "Private", "charter": "N", "openDate": "1980-07-01", "zip": "92130", "city": "San Diego", "addr": "11860 Carmel Creek Road", "name": "San Diego Jewish Academy", "cdsCode": "37680566907877", "docType": "Elementary School District", "minGrade": 0.0, "maxGrade": 12.0 }, "geometry": { "type": "Point", "coordinates": [ -13049820.796987541019917, 3886537.321845863480121 ] } },
{ "type": "Feature", "properties": { "district": "Del Mar Union Elementary", "schoolID": 100126, "priv": "Y", "shrtName": "Notre Dame Academy", "gsOffered": "K-8", "socType": "Private", "charter": "N", "openDate": "2012-07-20", "zip": "92130", "city": "San Diego", "addr": "4345 Del Mar Trails Road", "name": "Notre Dame Academy", "cdsCode": "37680566143622", "docType": "Elementary School District", "minGrade": 0.0, "maxGrade": 8.0 }, "geometry": { "type": "Point", "coordinates": [ -13048963.363526452332735, 3887649.409307131078094 ] } },
{ "type": "Feature", "properties": { "district": "San Dieguito Union High", "schoolID": 100156, "priv": "Y", "shrtName": "High Bluff", "gsOffered": "9-12", "socType": "Private", "charter": "N", "openDate": "2011-09-01", "zip": "92091", "city": "Rancho Santa Fe", "addr": "5531 Cancha De Golf, Suite 202", "name": "High Bluff Academy", "cdsCode": "37683466139570", "docType": "High School District", "minGrade": 9.0, "maxGrade": 12.0 }, "geometry": { "type": "Point", "coordinates": [ -13048127.248050050809979, 3894303.84167204098776 ] } },
{ "type": "Feature", "properties": { "district": "San Dieguito Union High", "schoolID": 100193, "priv": "Y", "shrtName": "Fusion", "gsOffered": "6-12", "socType": "Private", "charter": "N", "openDate": "2004-08-12", "zip": "92075", "city": "Solana Beach", "addr": "512 Via de la Valle, Suite 201", "name": "Fusion Academy Solana Beach", "cdsCode": "37683466205041", "docType": "High School District", "minGrade": 6.0, "maxGrade": 12.0 }, "geometry": { "type": "Point", "coordinates": [ -13053385.947808217257261, 3892723.192063900176436 ] } },
{ "type": "Feature", "properties": { "district": "San Dieguito Union High", "schoolID": 768, "priv": "N", "shrtName": "Pacific Trails Mid", "gsOffered": "7-8", "socType": "Intermediate/Middle Schools (Public)", "charter": "N", "openDate": "2015-08-25", "zip": "92130", "city": "San Diego", "addr": "5975 Village Center Loop Road", "name": "Pacific Trails Middle", "cdsCode": "37683460131649", "docType": "High School District", "minGrade": 7.0, "maxGrade": 8.0 }, "geometry": { "type": "Point", "coordinates": [ -13045145.75626084767282, 3889770.245236860122532 ] } },
{ "type": "Feature", "properties": { "district": "San Dieguito Union High", "schoolID": 100394, "priv": "Y", "shrtName": "Winston", "gsOffered": "6-12", "socType": "Private", "charter": "N", "openDate": "1980-07-01", "zip": "92014", "city": "Del Mar", "addr": "215 9th Street", "name": "The Winston School of San Diego", "cdsCode": "37683467050925", "docType": "High School District", "minGrade": 6.0, "maxGrade": 12.0 }, "geometry": { "type": "Point", "coordinates": [ -13053750.986717015504837, 3888975.026077904272825 ] } },
{ "type": "Feature", "properties": { "district": "Poway Unified", "schoolID": 100416, "priv": "Y", "shrtName": "Grace Christian", "gsOffered": "K-12", "socType": "Private", "charter": "N", "openDate": "2021-10-08", "zip": "92127", "city": "San Diego", "addr": "10760 Thornmint Rd", "name": "Grace Christian School", "cdsCode": "37682966161962", "docType": "Unified School District", "minGrade": 0.0, "maxGrade": 12.0 }, "geometry": { "type": "Point", "coordinates": [ -13035885.747567782178521, 3897712.285381036810577 ] } }
]
}
